var dioffices = {
"type": "FeatureCollection",
"crs": { "type": "name", "properties": { "name": "urn:ogc:def:crs:OGC:1.3:CRS84" } },

"features": [
{ "type": "Feature", "properties": { "Location": "Dhaka City, Bangladesh", "Latitude": 23.810332, "Longitude": 90.412518, "Name": "DI", "Type": "3", "Descriptio": "DI Headquarters" }, "geometry": { "type": "Point", "coordinates": [ 90.4125181, 23.810332 ] } },
{ "type": "Feature", "properties": { "Location": "Rangpur City, Bangladesh", "Latitude": 25.743892, "Longitude": 89.275227, "Name": "DI", "Type": "3", "Descriptio": "DI Regional Office" }, "geometry": { "type": "Point", "coordinates": [ 89.275227, 25.7438916 ] } },
{ "type": "Feature", "properties": { "Location": "Bogra, Bangladesh", "Latitude": 24.848100, "Longitude": 89.373000, "Name": "DI", "Type": "3", "Descriptio": "DI Regional Office" }, "geometry": { "type": "Point", "coordinates": [ 89.373, 24.8481 ] } },
{ "type": "Feature", "properties": { "Location": "Sylhet City, Bangladesh", "Latitude": 24.894929, "Longitude": 91.868706, "Name": "DI", "Type": "3", "Descriptio": "DI Regional Office" }, "geometry": { "type": "Point", "coordinates": [ 91.8687063, 24.8949294 ] } },
{ "type": "Feature", "properties": { "Location": "Mymensingh City, Bangladesh", "Latitude": 24.747149, "Longitude": 90.420273, "Name": "DI", "Type": "3", "Descriptio": "DI Regional Office" }, "geometry": { "type": "Point", "coordinates": [ 90.4202734, 24.7471492 ] } },
{ "type": "Feature", "properties": { "Location": "Khulna City, Bangladesh", "Latitude": 22.845641, "Longitude": 89.540328, "Name": "DI", "Type": "3", "Descriptio": "DI Regional Office" }, "geometry": { "type": "Point", "coordinates": [ 89.5403279, 22.845641 ] } },
{ "type": "Feature", "properties": { "Location": "Barisal City, Bangladesh", "Latitude": 22.701002, "Longitude": 90.353451, "Name": "DI", "Type": "3", "Descriptio": "DI Regional Office" }, "geometry": { "type": "Point", "coordinates": [ 90.3534511, 22.7010021 ] } },
{ "type": "Feature", "properties": { "Location": "Chittagong City, Bangladesh", "Latitude": 22.356851, "Longitude": 91.783182, "Name": "DI", "Type": "3", "Descriptio": "DI Regional Office" }, "geometry": { "type": "Point", "coordinates": [ 91.7831819, 22.356851 ] } }
]
}
